{"cinemas":[{"name":"Greater Union","street1":"6 Franklin Street","street2":"","suburb":"Manuka","state":"ACT","postcode":"2603","latitude":"-35.3204500000","longitude":"149.1345700000"},{"name":"Incident Theatres","street1":"Level 7  8 Westfield Shopping Town","street2":"500 Oxford Street","suburb":"Bondi Junction","state":"NSW","postcode":"2022","latitude":"-33.8914700000","longitude":"151.2504700000"},{"name":"Incident Theatres","street1":"100 Burwood Road","street2":"","suburb":"Burwood","state":"NSW","postcode":"2134","latitude":"-33.8746200000","longitude":"151.1059200000"},{"name":"Incident Theatres","street1":"447/453 King Georges Road","street2":"","suburb":"Beverly Hills","state":"NSW","postcode":"2209","latitude":"-33.9495900928","longitude":"151.0809803009"},{"name":"Incident Theatres","street1":"Macarthur Square Shopping Centre","street2":"Kellicar Road","suburb":"Campbelltown","state":"NSW","postcode":"2560","latitude":"-34.0738600000","longitude":"150.7989300000"},{"name":"Incident Theatres","street1":"505-525 George Street","street2":"","suburb":"George Street","state":"NSW","postcode":"2000","latitude":"-33.8754400000","longitude":"151.2059300000"},{"name":"Incident Theatres","street1":"Castle Towers Shopping Centre","street2":"Cnr Old Northern Road  Castle Street","suburb":"Castle Hill","state":"NSW","postcode":"2154","latitude":"-33.7321700000","longitude":"151.0058100000"},{"name":"Birch Carroll & Coyle","street1":"Cnr Bray St & Pacific Highway","street2":"","suburb":"Coffs Harbour","state":"NSW","postcode":"2450","latitude":"-30.2837100000","longitude":"153.1266500000"},{"name":"Skyline","street1":"Cricketers Arms Rd","street2":"","suburb":"Drive In Blacktown","state":"NSW","postcode":"2148","latitude":"-33.8042300000","longitude":"150.9029700000"},{"name":"Incident Theatres","street1":"2 Cronulla St","street2":"","suburb":"Cronulla","state":"NSW","postcode":"2230","latitude":"-34.0517816192","longitude":"151.1536306143"},{"name":"Incident Theatres","street1":"1 Stockland Drive","street2":"","suburb":"Glendale","state":"NSW","postcode":"2285","latitude":"-32.9294500000","longitude":"151.6419800000"},{"name":"Incident Theatres","street1":"Level 4 Westfield Shopping Centre","street2":"Cnr Pacific Highway & George Street","suburb":"Hornsby","state":"NSW","postcode":"2077","latitude":"-33.7046200000","longitude":"151.0987300000"},{"name":"Birch Carroll & Coyle","street1":"Corner of Keen and Zadoc Streets","street2":"","suburb":"Lismore","state":"NSW","postcode":"2480","latitude":"-28.8059600000","longitude":"153.2805700000"},{"name":"Greater Union","street1":"Rooftop Westfield Shopping Centre","street2":"Cnr Park Road & Cross St","suburb":"Hurstville","state":"NSW","postcode":"2220","latitude":"-33.9655200000","longitude":"151.1049000000"},{"name":"Greater Union","street1":"Westfield Shopping Centre","street2":"Cnr Kiora Rd & Urunga Pde","suburb":"Miranda","state":"NSW","postcode":"","latitude":"-34.0340100000","longitude":"151.1004300000"},{"name":"Incident Theatres","street1":"Cnr Herring & Waterloo Rd","street2":"","suburb":"Macquarie","state":"NSW","postcode":"2113","latitude":"-33.7774700000","longitude":"151.1181600000"},{"name":"Tower Cinemas","street1":"183-185 King Street","street2":"","suburb":"Newcastle","state":"NSW","postcode":"2300","latitude":"-32.9272600000","longitude":"151.7764900000"},{"name":"Incident Theatres","street1":"Rooftop Level Westfield shopping Centre","street2":"Elizabeth Drive","suburb":"Liverpool","state":"NSW","postcode":"2170","latitude":"-33.9183800000","longitude":"150.9155800000"},{"name":"Incident Theatres","street1":"Level 4 159-175 Church Street","street2":"","suburb":"Parramatta","state":"NSW","postcode":"2150","latitude":"-33.8177000000","longitude":"151.0021200000"},{"name":"Greater Union","street1":"4 Memorial Drive","street2":"","suburb":"Shellharbour","state":"NSW","postcode":"2529","latitude":"-34.5641200000","longitude":"150.8352200000"},{"name":"Moonlight","street1":"Belvedere Amphitheatre","street2":"Centennial Park","suburb":"Sydney Moonlight","state":"NSW","postcode":"","latitude":"-33.8899400000","longitude":"151.2348750000"},{"name":"Incident Theatres","street1":"Westfield Tuggerah","street2":"Cnr Wyong & Gavenlock Roads","suburb":"Tuggerah","state":"NSW","postcode":"2259","latitude":"-33.2980400000","longitude":"151.4182500000"},{"name":"Greater Union","street1":"68 Burelli Street","street2":"","suburb":"Wollongong","state":"NSW","postcode":"2500","latitude":"-34.4261100000","longitude":"150.8955300000"},{"name":"Incident Theatres","street1":"Level 4","street2":"Top Ryde City Shopping","suburb":"Top Ryde City","state":"NSW","postcode":"2112","latitude":"-33.8122433165","longitude":"151.1065471172"},{"name":"Birch Carroll & Coyle","street1":"Cnr Mitchell & Briggs Streets","street2":"","suburb":"Darwin","state":"NT","postcode":"0800","latitude":"-12.4610300000","longitude":"130.8376600000"},{"name":"Birch Carroll & Coyle","street1":"Casuarina Square Shopping Centre","street2":"247 Trower Road","suburb":"Casuarina","state":"NT","postcode":"0810","latitude":"-12.3746100000","longitude":"130.8817100000"},{"name":"Birch Carroll & Coyle","street1":"Level 1","street2":"Australia Fair Shopping Centre","suburb":"Australia Fair Cinemas","state":"QLD","postcode":"4215","latitude":"-27.9613100000","longitude":"153.4125500000"},{"name":"Incident Theatres","street1":"Level 3","street2":"Myer Centre","suburb":"Brisbane City Myer Centre","state":"QLD","postcode":"4000","latitude":"-27.4697700000","longitude":"153.0268100000"},{"name":"Moonlight","street1":"New Farm Park","street2":"Brisbane Powerhouse","suburb":"Brisbane Moonlight","state":"QLD","postcode":"3004","latitude":"-37.8285650000","longitude":"144.9754570000"},{"name":"Incident Theatres","street1":"Grand Plaza Shopping Centre","street2":"27-49 Browns Plains Road","suburb":"Browns Plains","state":"QLD","postcode":"4118","latitude":"-27.6604400000","longitude":"153.0380600000"},{"name":"Birch Carroll & Coyle","street1":"Cairns Central Shopping Centre","street2":"Cnr Mcleod & Spence Streets","suburb":"Cairns Central","state":"QLD","postcode":"4870","latitude":"-16.9262300000","longitude":"145.7741800000"},{"name":"Incident Theatres","street1":"108 Grafton St","street2":"","suburb":"Cairns City","state":"QLD","postcode":"4870","latitude":"-16.9220600000","longitude":"145.7740300000"},{"name":"Birch Carroll & Coyle","street1":"Stockland Shopping Centre","street2":"Mulgrave Road","suburb":"Cairns Earlville","state":"QLD","postcode":"4870","latitude":"-16.9365700000","longitude":"145.7510900000"},{"name":"Birch Carroll & Coyle","street1":"Capalaba Central Shopping Centre","street2":"Cnr Moreton Bay Road & Old Cleveland Road","suburb":"Capalaba","state":"QLD","postcode":"4157","latitude":"-27.5220800000","longitude":"153.2011300000"},{"name":"Incident Theatres","street1":"Westfield Carindale","street2":"Cnr Creek & Old Cleveland Roads","suburb":"Carindale","state":"QLD","postcode":"4152","latitude":"-27.4991200000","longitude":"153.1008600000"},{"name":"Incident Theatres","street1":"Westfield Shopping Centre","street2":"Cnr Gympie Road  Hamilton Road","suburb":"Chermside","state":"QLD","postcode":"4032","latitude":"-27.3845400000","longitude":"153.0305100000"},{"name":"Birch Carroll & Coyle","street1":"Level 2 Showcase on The Beach","street2":"Cnr Griffith & Warners Streets","suburb":"Coolangatta","state":"QLD","postcode":"4225","latitude":"-28.1686900000","longitude":"153.5392100000"},{"name":"Incident Theatres","street1":"Indooroopilly Shopping Centre","street2":"Moggill Road","suburb":"Indooroopilly","state":"QLD","postcode":"4068","latitude":"-27.4995200000","longitude":"152.9676800000"},{"name":"Incident Theatres","street1":"Cnr Logan and Kessels Roads","street2":"","suburb":"Garden City Mt Gravatt","state":"QLD","postcode":"4122","latitude":"-27.5600300000","longitude":"153.0810800000"},{"name":"Birch Carroll & Coyle","street1":"Cnr Brisbane & Ellenborough Streets","street2":"","suburb":"Ipswich","state":"QLD","postcode":"4305","latitude":"-27.6139600000","longitude":"152.7579400000"},{"name":"Birch Carroll & Coyle","street1":"30 Gordon Street","street2":"","suburb":"Mackay City","state":"QLD","postcode":"","latitude":"-21.1430000000","longitude":"149.1831000000"},{"name":"Birch Carroll & Coyle","street1":"13-29 Grandview Drive","street2":"","suburb":"Mackay Mount Pleasant","state":"QLD","postcode":"4740","latitude":"-21.1218500000","longitude":"149.1599100000"},{"name":"Birch Carroll & Coyle","street1":"Morayfield Shopping Centre","street2":"Morayfield Road","suburb":"Morayfield","state":"QLD","postcode":"4506","latitude":"-27.1128000000","longitude":"152.9515300000"},{"name":"Birch Carroll & Coyle","street1":"Sunshine Plaza Sunseeker Parade","street2":"","suburb":"Maroochydore Sunshine Plaza","state":"QLD","postcode":"4558","latitude":"-26.6569500000","longitude":"153.0875800000"},{"name":"Birch Carroll & Coyle","street1":"Pacific Fair Shopping Centre","street2":"Hooker Boulevard","suburb":"Pacific Fair","state":"QLD","postcode":"4218","latitude":"-28.0343100000","longitude":"153.4303300000"},{"name":"Incident Theatres","street1":"29 Sunshine Beach Road","street2":"","suburb":"Noosa Cinemas","state":"QLD","postcode":"4567","latitude":"-26.3940220000","longitude":"153.0903630000"},{"name":"Incident Theatres","street1":"Robina Town Centre","street2":"Cnr Collyer Quays  Lido Promenade","suburb":"Robina","state":"QLD","postcode":"4226","latitude":"-28.0749800000","longitude":"153.3835800000"},{"name":"Incident Theatres","street1":"Westfield Strathpine Shopping Centre","street2":"295 Gympie Road","suburb":"Strathpine","state":"QLD","postcode":"4500","latitude":"-27.3069000000","longitude":"152.9933200000"},{"name":"Incident Theatres","street1":"Level 1","street2":"Centro Toombul","suburb":"Toombul","state":"QLD","postcode":"4012","latitude":"-27.4087800000","longitude":"153.0604900000"},{"name":"Birch Carroll & Coyle","street1":"Stockland Rockhampton","street2":"Highway 1","suburb":"Rockhampton North","state":"QLD","postcode":"4701","latitude":"-23.3587100000","longitude":"150.5055200000"},{"name":"Birch Carroll & Coyle","street1":"Cnr Margaret & Dent Streets","street2":"","suburb":"Toowoomba Grand Central","state":"QLD","postcode":"4350","latitude":"-27.5606500000","longitude":"151.9505200000"},{"name":"Moonlight","street1":"Botanic Park","street2":"Hackney Rd","suburb":"Adelaide Moonlight","state":"SA","postcode":"","latitude":"-34.9129980000","longitude":"138.6090520000"},{"name":"Birch Carroll & Coyle","street1":"163 Margaret Street","street2":"","suburb":"Toowoomba Strand","state":"QLD","postcode":"","latitude":"-27.5613000000","longitude":"151.9556600000"},{"name":"Incident Theatres","street1":"Cnr Sturt & Blackwood Streets","street2":"","suburb":"Townsville City","state":"QLD","postcode":"","latitude":"-19.2622100000","longitude":"146.8131600000"},{"name":"Greater Union","street1":"470 Torrens Road","street2":"","suburb":"Arndale","state":"SA","postcode":"5012","latitude":"-34.8748700000","longitude":"138.5478400000"},{"name":"Incident Theatres","street1":"Level 3","street2":"Westfield Marion. 297 Diagonal Road","suburb":"Marion","state":"SA","postcode":"5046","latitude":"-35.0138800000","longitude":"138.5446700000"},{"name":"Incident Theatres","street1":"57 Liege Street","street2":"","suburb":"Innaloo","state":"WA","postcode":"6018","latitude":"-31.9043300000","longitude":"115.7970200000"},{"name":"Moonlight","street1":"Royal Botanic Gardens","street2":"South Yarra","suburb":"Melbourne Moonlight","state":"VIC","postcode":"3004","latitude":"-37.8320220000","longitude":"144.9825380000"},{"name":"Greater Union","street1":"Centro Galleria","street2":"Cnr Walter & Old Collier Roads","suburb":"Morley","state":"WA","postcode":"6062","latitude":"-31.8949200000","longitude":"115.8970300000"},{"name":"Moonlight","street1":"Synergy Parkland","street2":"Kings Park","suburb":"Perth Moonlight","state":"WA","postcode":"6005","latitude":"-31.9623570000","longitude":"115.8220770000"}]}